[
{
"CountryId": "1",
"CountryName": "جمهوری اسلامی ایران",
"CountryFlag" : "iran",
"CountryLat" : "32.0000",
"CountryLng":"53.0000"
},
{
"CountryId": "2",
"CountryName": "تاجیکستان",
"CountryFlag" : "tajikestan",
"CountryLat" : "38.5500",
"CountryLng":"68.8000"
},
{
"CountryId": "7",
"CountryName": "بنگلادش",
"CountryFlag" : "bangladesh",
"CountryLat" : "23.7000",
"CountryLng":"90.3500"
},
{
"CountryId": "8",
"CountryName": "بوتان",
"CountryFlag" : "bhutan",
"CountryLat" : "27.4170",
"CountryLng":"90.4350"
},
{
"CountryId": "9",
"CountryName": "برنی",
"CountryFlag" : "brunei",
"CountryLat" : "4.8903",
"CountryLng":"114.9422"
},
{
"CountryId": "10",
"CountryName": "چین",
"CountryFlag" : "china",
"CountryLat" : "35.0000",
"CountryLng":"103.0000"
},
{
"CountryId": "11",
"CountryName": "هند",
"CountryFlag" : "india",
"CountryLat" : "21.0000",
"CountryLng":"78.0000"
},
{
"CountryId": "12",
"CountryName": "اندونزی",
"CountryFlag" : "indonezia",
"CountryLat" : "6.1750",
"CountryLng":"106.8283"
},
{
"CountryId": "14",
"CountryName": "ژاپن",
"CountryFlag" : "japan",
"CountryLat" : "35.6833",
"CountryLng":"139.7667"
},
{
"CountryId": "19",
"CountryName": "لائوس",
"CountryFlag" : "laos",
"CountryLat" : "17.9667",
"CountryLng":"102.6000"
},
{
"CountryId": "21",
"CountryName": "مالزی",
"CountryFlag" : "malaysia",
"CountryLat" : "3.1333",
"CountryLng":"101.7000"
},
{
"CountryId": "23",
"CountryName": "میانمار",
"CountryFlag" : "myanmar",
"CountryLat" : "22.0000",
"CountryLng":"96.0000"
},
{
"CountryId": "24",
"CountryName": "نپال",
"CountryFlag" : "nepal",
"CountryLat" : "26.5333",
"CountryLng":"86.7333"
},
{
"CountryId": "25",
"CountryName": "کره شمالی",
"CountryFlag" : "northkorea",
"CountryLat" : "40.0000",
"CountryLng":"127.0000"
},
{
"CountryId": "28",
"CountryName": "فیلیپین",
"CountryFlag" : "philippines",
"CountryLat" : "13.0000",
"CountryLng":"122.0000"
},
{
"CountryId": "31",
"CountryName": "سنگاپور",
"CountryFlag" : "singapore",
"CountryLat" : "1.3000",
"CountryLng":"103.8000"
},
{
"CountryId": "32",
"CountryName": "کره جنوبی",
"CountryFlag" : "southkorea",
"CountryLat" : "37.5500",
"CountryLng":"126.9667"
},
{
"CountryId": "33",
"CountryName": "سریلانکا",
"CountryFlag" : "srilanka",
"CountryLat" : "7.0000",
"CountryLng":"81.0000"
},
{
"CountryId": "35",
"CountryName": "تایوان",
"CountryFlag" : "taiwan",
"CountryLat" : "23.5000",
"CountryLng":"121.0000"
},
{
"CountryId": "36",
"CountryName": "تایلند",
"CountryFlag" : "thailand",
"CountryLat" : "13.7500",
"CountryLng":"100.4833"
},
{
"CountryId": "40",
"CountryName": "ویتنام",
"CountryFlag" : "vietnam",
"CountryLat" : "21.0333",
"CountryLng":"105.8500"
}
]
